city_name,country_code,random_latitude,random_longitude,latitude,longitude,Temperature,Humidity,Cloudiness,Wind_speed
albany,au,-77.22000000000254,99.40000000014294,-35.02,117.88,19.04,67,80,6.17
castro,cl,-55.38000000000689,-102.65999999996043,-42.48,-73.76,8.49,88,88,2.02
kangaatsiaq,gl,67.85999999996858,-52.97999999993502,68.31,-53.46,-6.01,96,56,1.57
atyrau,kz,47.639999999972616,50.50000000011792,47.1,51.92,14,71,40,6
necochea,ar,-49.54000000000805,-54.519999999935806,-38.55,-58.74,17.04,93,92,6.47
camacha,pt,38.219999999974505,-17.259999999916744,33.08,-16.33,16,67,40,9.8
ushuaia,ar,-73.04000000000337,-66.71999999994205,-54.81,-68.31,-0.21,100,0,4.32
hermanus,za,-67.26000000000452,-1.2599999999085583,-34.42,19.24,9.84,88,24,1.67
kapaa,us,38.89999999997434,-160.2399999999899,22.08,-159.32,23,88,75,6.7
new norfolk,au,-47.36000000000848,142.580000000165,-42.78,147.06,17,55,40,5.7
george,za,-34.46000000001105,21.700000000103188,-33.96,22.46,14,71,0,3.1
sorong,id,0.019999999982090344,129.54000000015833,-0.86,131.25,28.49,100,8,4.87
mount gambier,au,-47.94000000000837,131.28000000015925,-37.83,140.78,24.94,53,0,2.07
elizabeth city,us,35.79999999997497,-76.35999999994698,36.3,-76.22,10.69,81,1,3.1
bambanglipuro,id,-15.980000000014726,109.10000000014793,-7.95,110.28,28.59,83,88,3.77
butaritari,ki,2.559999999981585,170.42000000017924,3.07,172.79,28.74,99,32,5.97
busselton,au,-71.16000000000375,85.56000000013586,-33.64,115.35,18.84,100,80,5.37
bowen,au,-18.340000000014257,149.44000000016854,-20.01,148.25,27,65,0,6.7
kaitangata,nz,-71.72000000000364,176.80000000018254,-46.28,169.85,14.44,61,0,7.92
te anau,nz,-41.18000000000971,162.00000000017496,-45.41,167.72,9.54,80,92,3.77
hilo,us,13.159999999979476,-157.81999999998865,19.71,-155.08,24,69,75,2.1
mahenge,tz,-8.480000000016219,37.5600000001113,-8.68,36.72,21.99,98,76,1.57
hobart,au,-43.62000000000923,152.02000000016983,-42.88,147.33,17,55,40,5.7
kahului,us,37.6599999999746,-149.03999999998416,20.89,-156.47,22.34,73,40,7.2
tanete,id,-6.180000000016676,121.04000000015401,-3.94,119.78,28.59,83,44,4.22
rikitea,pf,-49.520000000008054,-115.8999999999672,-23.12,-134.97,25.04,100,44,3.12
colares,pt,38.73999999997437,-13.959999999915055,38.8,-9.45,13.51,100,0,2.1
dikson,ru,88.61999999996448,76.22000000013111,73.51,80.55,-9.36,97,68,8.52
ust-maya,ru,61.139999999969916,133.46000000016033,60.42,134.54,6.34,43,0,2.12
bredasdorp,za,-43.32000000000929,22.360000000103526,-34.53,20.04,10,87,24,1
afsin,tr,38.51999999997443,36.52000000011077,38.25,36.91,10.54,64,0,2.92
ponta do sol,cv,15.859999999978939,-36.63999999992666,17.2,-25.09,20.99,100,56,8.42
alofi,nu,-16.200000000014683,-168.4799999999941,-19.06,-169.92,27,83,92,1
ovsyanka,ru,54.33999999997127,126.50000000015677,53.58,126.91,17.54,29,56,3.92
thompson,ca,70.33999999996809,-92.6199999999553,55.74,-97.86,1,100,90,4.6
saint-philippe,re,-37.62000000001042,62.860000000124245,-21.36,55.77,26,74,0,3.1
saskylakh,ru,71.51999999996787,116.5200000001517,71.97,114.09,-10.51,93,56,2.37
sept-iles,ca,55.619999999971014,-67.95999999994268,50.2,-66.38,3,32,20,2.1
vaini,to,-73.14000000000335,-178.89999999999944,-21.2,-175.2,26,83,75,4.6
sao jose da coroa grande,br,-10.440000000015829,-31.099999999923824,-8.9,-35.15,21.74,100,88,1.62
half moon bay,us,29.199999999976285,-135.6399999999773,37.46,-122.43,16.46,59,1,2.6
igarka,ru,66.97999999996875,85.62000000013586,67.47,86.57,-10.46,95,68,7.57
portland,au,-40.10000000000993,140.22000000016385,-33.35,149.98,16.79,77,68,1.12
victoria,sc,-5.120000000016887,62.30000000012396,-4.62,55.45,28,83,75,4.1
montevideo,uy,-35.440000000010855,-56.299999999936716,-34.83,-56.17,19,100,92,2.6
hithadhoo,mv,-13.880000000015144,83.6800000001349,-0.6,73.08,29.14,100,44,3.32
luderitz,na,-34.2000000000111,-1.3399999999085992,-26.65,15.16,11.54,98,48,3.77
east london,za,-79.4600000000021,58.34000000012193,-33.02,27.91,11,71,0,1.5
antalaha,mg,-15.36000000001485,51.10000000011823,-14.9,50.28,23.19,100,92,3.42
mbengwi,cm,6.279999999980845,9.400000000096895,6,10.01,15.89,91,68,1.07
yar-sale,ru,72.67999999996763,71.52000000012868,66.83,70.83,-11.21,100,8,2.52
aswan,eg,22.959999999977526,31.24000000010807,24.09,32.9,18,31,0,2.6
zabaykalsk,ru,46.95999999997275,116.22000000015157,49.63,117.32,16.04,29,0,6.37
punta arenas,cl,-70.28000000000392,-113.75999999996611,-53.16,-70.91,2,80,40,5.7
vila velha,br,-25.52000000001283,-26.5599999999215,-3.71,-38.6,27,83,40,4.1
zuwarah,ly,32.85999999997556,12.220000000098338,32.93,12.08,17.29,90,0,3.22
upernavik,gl,72.19999999996773,-57.159999999937156,72.79,-56.15,-5.61,89,36,1.32
norman wells,ca,82.85999999996562,-118.53999999996856,65.28,-126.83,-4,49,20,2.1
bolobo,cd,-1.3800000000176311,17.140000000100855,-2.17,16.23,22.04,100,80,1.62
salta,ar,-25.380000000012856,-65.17999999994126,-24.79,-65.41,19.37,87,0,2.1
machaneng,bw,-23.580000000013214,27.280000000106043,-23.19,27.49,17.59,61,0,1.62
den helder,nl,54.31999999997129,4.64000000009446,52.96,4.76,9.68,93,20,4.1
longhua,cn,28.91999999997634,108.1200000001474,29.21,106.21,21,88,90,1
kokopo,pg,-5.5400000000168035,151.76000000016973,-4.34,152.27,28.19,100,56,3.87
cidreira,br,-57.500000000006466,-24.279999999920335,-30.17,-50.22,19.14,96,0,2.07
kavieng,pg,3.379999999981422,153.52000000017063,-2.57,150.8,28.39,100,24,0.67
jamestown,sh,-31.90000000001156,-1.8999999999088857,-15.94,-5.72,23.99,100,0,8.22
sao filipe,cv,15.619999999978987,-24.859999999920632,14.9,-24.5,20.84,100,8,7.62
ca mau,vn,9.259999999980252,104.16000000014537,9.18,105.15,27.99,99,64,1.97
tottori,jp,36.29999999997487,134.02000000016062,35.5,134.23,18.23,77,75,5.7
baykit,ru,64.77999999996922,97.00000000014171,61.68,96.39,-4.01,68,12,5.37
yuty,py,-26.740000000012586,-56.51999999993683,-26.61,-56.25,23.39,74,0,1.92
inhambane,mz,-26.540000000012625,38.26000000011166,-23.87,35.38,19,93,20,2.77
snyder,us,33.75999999997538,-100.4399999999593,32.72,-100.92,14.56,47,1,3.1
senador guiomard,br,-10.740000000015769,-67.71999999994256,-10.15,-67.74,23,88,20,1
bluff,nz,-69.34000000000411,156.68000000017224,-46.6,168.33,13.89,89,64,11.97
nikolskoye,ru,49.419999999972276,168.38000000017826,59.7,30.79,2,69,0,3
ito,jp,34.91999999997515,139.26000000016336,34.93,139.09,18,82,75,5.7
baherden,tm,39.599999999974216,57.18000000012134,38.44,57.43,15.74,90,64,1.72
cherskiy,ru,70.69999999996804,158.9200000001734,68.75,161.3,-2.51,74,24,1.52
novaya zaimka,ru,56.459999999970876,67.16000000012644,56.49,66.92,8.04,93,76,5.27
garowe,so,7.019999999980698,46.460000000115855,8.41,48.48,25.19,82,56,2.02
naze,jp,27.479999999976627,132.46000000015988,28.37,129.48,25,73,75,6.7
acapulco,mx,8.239999999980455,-101.75999999995997,16.86,-99.88,27,88,20,1.5
naryan-mar,ru,67.37999999996867,51.00000000011818,67.67,53.09,-5.11,90,20,3.72
chuy,uy,-56.98000000000657,-32.119999999924346,-33.69,-53.46,20.44,97,56,4.77
yellowknife,ca,71.69999999996782,-118.19999999996838,62.45,-114.38,-3,68,75,2.6
barrow,us,77.3999999999667,-164.99999999999233,39.51,-90.4,14.36,44,90,3.6
georgetown,sh,-18.460000000014233,-17.259999999916744,-7.93,-14.42,26.29,100,20,4.77
puerto ayora,ec,-7.660000000016382,-103.81999999996103,-0.74,-90.35,24.04,99,8,3.32
coahuayana,mx,1.3799999999818198,-111.87999999996515,18.62,-100.35,21.54,64,56,1.02
kodiak,us,49.67999999997221,-147.5399999999834,39.95,-94.76,15,47,75,3.1
arraial do cabo,br,-49.820000000007994,-21.479999999918903,-22.97,-42.02,23.14,91,68,2.42
anaconda,us,46.51999999997284,-112.63999999996554,46.13,-112.94,7,84,90,1.12
yumen,cn,37.939999999974546,97.24000000014183,40.29,97.04,13.59,61,76,3.52
gazanjyk,tm,39.49999999997425,56.080000000120776,39.24,55.52,12.14,100,92,2.67
kovrov,ru,56.47999999997086,41.50000000011332,56.37,41.31,0.49,43,0,10.17
petropavlovsk-kamchatskiy,ru,51.2399999999719,158.9800000001734,53.05,158.65,5,44,20,6
kapit,my,1.3399999999818277,112.48000000014963,2.02,112.94,29.29,74,56,1.42
mareeba,au,-17.1200000000145,141.5000000001645,-16.99,145.42,27,69,75,9.3
oktyabrskiy,ru,52.05999999997175,152.40000000017005,55.61,37.97,1.24,51,0,7
longyearbyen,sj,89.93999999996419,24.960000000104856,78.22,15.64,-9,66,75,5.1
mayo,ca,65.03999999996915,-138.09999999997856,63.59,-135.9,6,38,75,3.1
san patricio,mx,18.859999999978342,-105.01999999996164,19.22,-104.7,19.74,100,0,0.92
zyryanka,ru,66.35999999996889,152.00000000016985,65.73,150.89,3.74,59,0,1.32
razdolinsk,ru,58.399999999970476,94.48000000014042,58.42,94.62,5.19,49,0,1.52
tuktoyaktuk,ca,84.65999999996524,-125.55999999997215,69.44,-133.03,-18.82,76,5,2.6
cabatuan,ph,13.499999999979408,125.94000000015649,16.95,121.67,30.69,77,36,2.12
ugoofaaru,mv,5.019999999981096,62.20000000012391,5.67,73,29.84,100,0,3.37
gidam,in,19.27999999997826,81.12000000013359,18.98,81.4,33.99,44,0,4.32
avarua,ck,-28.240000000012287,-162.0399999999908,-21.21,-159.78,26,78,75,1.5
atuona,pf,-16.32000000001466,-139.45999999997926,-9.8,-139.03,27.39,100,88,7.07
sitka,us,48.199999999972505,-143.6199999999814,37.17,-99.65,8.04,87,0,1.42
verkhoyansk,ru,66.29999999996892,131.84000000015953,67.55,133.39,4.49,71,56,4.22
aklavik,ca,83.67999999996545,-143.8399999999815,68.22,-135.01,-15,65,20,2.1
qaanaaq,gl,84.03999999996537,-70.95999999994422,77.48,-69.36,-7.71,83,88,3.22
kruisfontein,za,-77.24000000000254,27.640000000106227,-34,24.73,14.69,90,20,2.32
iqaluit,ca,59.7999999999702,-70.99999999994424,63.75,-68.52,-10,85,75,15.4
cambridge,gb,52.39999999997167,0.2200000000921989,52.2,0.12,6.67,100,8,4.1
cape town,za,-82.26000000000154,-12.919999999914523,-33.93,18.42,15,93,75,8.7
srednekolymsk,ru,72.43999999996768,152.7400000001702,67.46,153.71,4.04,68,0,1.42
kendal,id,-6.5000000000166125,110.24000000014848,-6.92,110.2,24.99,100,56,1.32
egvekinot,ru,60.09999999997012,-179.4399999999997,66.32,-179.17,-5.86,83,0,1.97
mahebourg,mu,-33.60000000001122,69.86000000012783,-20.41,57.7,26,88,75,6.7
chulman,ru,57.07999999997074,126.26000000015665,56.84,124.9,11.14,39,36,2.77
norden,de,53.63999999997142,6.940000000095637,53.59,7.21,12,93,75,4.6
port hedland,au,-26.000000000012733,120.20000000015358,-20.31,118.58,40,16,0,5.7
salalah,om,16.739999999978764,51.08000000011822,17.01,54.1,30,70,40,0.87
camalobalo,ph,10.259999999980053,122.96000000015499,10.27,122.95,31.69,59,32,1.77
batagay-alyta,ru,65.3199999999691,130.08000000015863,67.8,130.41,3.34,84,32,4.92
yerbogachen,ru,60.919999999969974,107.9200000001473,61.28,108.01,3.39,46,24,7.87
sinjai,id,-5.720000000016768,121.22000000015407,-5.12,120.25,26.24,92,68,1.77
minjur,in,13.759999999979357,80.78000000013344,13.28,80.26,36,50,20,4.1
lebu,cl,-33.980000000011145,-92.47999999995523,-37.62,-73.65,11.74,100,0,9.17
taoudenni,ml,22.579999999977602,-1.319999999908589,22.68,-3.98,20.19,25,0,3.47
dryden,ca,50.25999999997208,-93.33999999995567,49.79,-92.84,9,61,90,3.6
kandrian,pg,-5.96000000001672,148.86000000016827,-6.21,149.55,27.14,84,92,2.87
badou,tg,7.999999999980503,0.6200000000924035,7.58,0.61,21.54,95,20,1.97
nizhnyaya tavda,ru,57.85999999997057,65.88000000012579,57.67,66.17,5.49,98,48,6.22
sydney,au,-35.62000000001082,154.30000000017105,-33.85,151.22,25.1,53,20,5.1
assen,nl,53.01999999997156,6.440000000095381,53,6.56,11.23,93,90,4.6
sitangkai,ph,4.559999999981187,119.10000000015305,4.66,119.39,29.24,100,20,0.27
ostrovnoy,ru,76.19999999996693,42.180000000113665,68.05,39.51,-7.01,89,0,1.52
pevek,ru,89.11999999996436,171.54000000017982,69.7,170.27,-4.21,73,0,2.07
mehamn,no,75.65999999996706,27.760000000106288,71.03,27.85,1,80,75,3.6
gamboula,cf,4.419999999981215,15.060000000099791,4.12,15.14,22.64,94,20,1.87
angoche,mz,-16.780000000014567,40.78000000011295,-16.23,39.91,27.14,100,92,8.02
sargatskoye,ru,55.55999999997104,73.5200000001297,55.6,73.49,5.54,100,48,3.92
otacilio costa,br,-27.400000000012454,-50.139999999933565,-27.48,-50.12,15.39,98,88,3.22
port elizabeth,za,-62.64000000000544,29.960000000107414,-33.92,25.57,17.94,100,12,2.42
tiksi,ru,87.51999999996468,122.72000000015487,71.64,128.87,-1.16,82,92,0.82
burnie,au,-43.580000000009235,142.84000000016516,-41.05,145.91,15.69,100,0,2.57
geraldton,au,-30.880000000011762,102.82000000014466,-28.77,114.6,24,47,40,5.7
souillac,mu,-53.46000000000727,75.8600000001309,-20.52,57.52,26,88,75,6.7
los llanos de aridane,es,27.479999999976627,-25.899999999921164,28.66,-17.92,18,68,88,2.6
pisco,pe,-23.480000000013234,-94.83999999995643,-13.71,-76.2,20,82,0,2.6
prince rupert,ca,47.83999999997258,-135.2599999999771,54.32,-130.32,7,81,75,4.6
carnarvon,au,-23.640000000013202,94.46000000014044,-24.87,113.63,24.94,84,24,7.07
myronivka,ua,49.779999999972176,30.980000000107935,49.66,30.98,12.79,60,0,2.47
nantucket,us,40.53999999997404,-70.7399999999441,41.28,-70.1,3.22,93,1,3.6
dehloran,ir,32.6399999999756,47.300000000116285,32.69,47.27,23.19,72,88,3.87
gobabis,na,-21.480000000013632,18.740000000101674,-22.45,18.97,11.69,53,0,2.67
beringovskiy,ru,59.159999999970324,176.54000000018243,63.05,179.32,-3.41,96,80,8.62
paamiut,gl,64.39999999996928,-49.01999999993299,61.99,-49.67,0.24,99,88,4.82
churapcha,ru,64.63999999996923,133.5200000001604,62,132.43,7.04,49,24,3.77
khatanga,ru,69.03999999996836,104.44000000014552,71.98,102.47,-13.01,86,20,7.92
coquimbo,cl,-29.400000000012056,-85.91999999995187,-29.95,-71.34,12,93,90,1
puri,in,18.599999999978394,86.36000000013627,19.8,85.85,36,56,40,2.6
huadian,cn,42.69999999997361,126.76000000015694,42.97,126.75,14.04,42,92,3.47
cabo san lucas,mx,14.719999999979166,-113.35999999996591,22.89,-109.91,22,53,40,4.17
pontian kecil,my,0.8599999999819232,103.34000000014498,1.48,103.39,28.7,70,75,1
clyde river,ca,70.29999999996812,-65.17999999994126,70.47,-68.59,-6,92,90,4.1
saint-pierre,pm,40.359999999974065,-56.69999999993692,46.77,-56.17,0.19,100,8,7.92
astoria,us,46.239999999972895,-125.83999999997229,46.19,-123.83,8,75,1,2.1
sisimiut,gl,66.15999999996893,-56.39999999993677,66.94,-53.67,-7.21,75,64,1.42
genhe,cn,50.21999999997212,122.38000000015472,50.78,121.52,13.99,37,0,5.82
klaksvik,fo,76.47999999996688,-3.11999999990951,62.23,-6.59,7,93,92,8.7
matamoros,mx,25.379999999977045,-96.7399999999574,25.53,-103.23,21.74,46,20,7.52
asyut,eg,24.0999999999773,26.040000000105408,27.18,31.19,18.94,37,0,2.12
faanui,pf,-13.280000000015264,-155.41999999998743,-16.48,-151.75,27.84,100,48,2.57
port blair,in,11.799999999979747,86.94000000013659,11.67,92.75,29.79,100,0,2.17
kovdor,ru,68.41999999996847,30.5200000001077,67.56,30.47,0.24,80,64,1.52
bosaso,so,12.43999999997962,48.72000000011701,11.28,49.18,31,58,0,7.2
port alfred,za,-60.56000000000586,40.58000000011285,-33.59,26.89,17.04,100,8,2.47
evensk,ru,61.2799999999699,159.84000000017386,61.92,159.24,1.24,83,0,2.97
mecca,sa,21.419999999977833,42.900000000114034,21.43,39.83,29,83,20,0.52
sao joao da barra,br,-29.560000000012025,-29.679999999923098,-21.64,-41.05,25.29,98,92,4.32
mogadishu,so,1.2199999999818516,45.80000000011552,2.04,45.34,28,83,0,3.02
ixtapa,mx,9.11999999998028,-106.05999999996217,20.71,-105.21,23,100,75,0.82
nome,us,65.97999999996898,-164.5599999999921,30.04,-94.42,13.74,82,1,1.5
flinders,au,-32.80000000001138,129.06000000015808,-34.58,150.85,20.54,73,20,1.52
sola,vu,-11.200000000015677,171.7000000001799,-13.88,167.55,27.89,94,88,6.02
tommot,ru,57.7599999999706,127.04000000015708,58.97,126.27,9.54,56,48,2.62
leningradskiy,ru,79.95999999996619,179.96000000018415,69.38,178.42,-9.11,86,0,7.17
channel-port aux basques,ca,47.69999999997259,-59.659999999938435,47.57,-59.14,0.24,93,0,7.02
obihiro,jp,42.47999999997364,143.4200000001655,42.92,143.2,11,55,75,5.7
altamira,br,-3.7000000000171696,-51.41999999993422,-3.2,-52.21,23.69,96,80,1.82
touros,br,0.29999999998203464,-34.599999999925615,-5.2,-35.46,23.94,100,80,3.57
fazilka,in,30.419999999976042,73.9200000001299,30.41,74.03,31.74,43,0,1.92
kavaratti,in,8.639999999980375,68.72000000012724,10.57,72.64,30.89,99,12,1.62
ribas do rio pardo,br,-20.24000000001388,-53.17999999993512,-20.45,-53.76,16.69,78,0,1.17
ponta delgada,pt,32.1399999999757,-26.27999999992136,37.73,-25.67,15,82,20,3.1
rehoboth,na,-23.480000000013234,17.920000000101254,-23.31,17.08,6.69,61,0,1.17
dakar,sn,16.879999999978736,-19.339999999917808,14.69,-17.45,19.04,96,12,6.47
gwadar,pk,24.279999999977264,62.20000000012391,25.12,62.33,28.34,69,0,1.77
fairbanks,us,62.679999999969624,-142.75999999998095,64.84,-147.72,7.7,39,1,4.1
jasidih,in,24.679999999977184,86.74000000013643,24.51,86.65,36.34,21,0,2.97
albania,co,10.959999999979914,-72.37999999994494,5.76,-73.91,16.49,95,92,1.42
natal,br,-1.6000000000175874,-25.71999999992107,-5.81,-35.21,24,88,20,1.5
sechura,pe,-10.040000000015908,-86.21999999995202,-5.56,-80.82,20.64,81,0,3.97
dunedin,nz,-51.020000000007755,173.52000000018086,-45.87,170.5,14.24,55,36,2.52
moron,mn,46.93999999997277,98.82000000014261,47.38,110.32,13.49,50,0,2.12
hit,iq,31.17999999997589,42.76000000011396,33.64,42.83,18.99,73,0,4.97
nalut,ly,30.43999999997604,10.580000000097499,31.86,10.98,14.99,46,0,1.57
jurilovca,ro,44.679999999973205,28.86000000010685,44.77,28.87,14.53,82,0,1
udachnyy,ru,66.67999999996883,112.00000000014938,66.42,112.4,3.49,96,92,3.97
vostok,ru,51.39999999997187,151.30000000016946,46.45,135.83,11.44,39,0,1.37
kirakira,sb,-12.820000000015355,162.100000000175,-10.46,161.92,27.04,100,80,5.47
balikpapan,id,-1.5400000000175993,116.8600000001519,-1.24,116.86,28.94,100,8,1.92
wagar,sd,15.919999999978927,35.280000000110135,16.15,36.2,32.49,19,0,3.32
altay,cn,46.95999999997275,90.66000000013844,47.83,88.13,11.24,53,0,1.37
atar,mr,24.13999999997729,-10.339999999913204,20.52,-13.05,15.64,23,0,1.47
fukue,jp,31.07999999997591,127.10000000015714,35.03,136.69,24.19,56,75,9.3
zakamensk,ru,50.719999999972,102.70000000014466,50.38,103.29,14.69,54,0,2.12
cherepovets,ru,59.43999999997027,38.10000000011158,59.13,37.92,0.79,67,0,5.67
kaeo,nz,-32.66000000001141,174.8000000001815,-35.1,173.78,16.99,65,76,1.42
ballina,au,-31.980000000011543,162.06000000017502,-28.87,153.57,21.44,100,80,7.12
san jeronimo,mx,13.259999999979456,-102.43999999996032,29.37,-110.79,24,19,5,3.1
roebourne,au,-22.70000000001339,118.54000000015276,-20.77,117.15,38.49,15,0,2.17
torbay,ca,35.79999999997497,-49.59999999993329,47.66,-52.73,-1,86,90,1.5
walvis bay,na,-24.840000000012964,8.600000000096486,-22.95,14.51,11,93,90,2.77
the valley,ai,24.619999999977196,-60.9599999999391,18.22,-63.06,26,78,75,4.1
hasaki,jp,32.77999999997557,149.1000000001684,35.73,140.83,17.06,77,75,5.1
xiaoweizhai,cn,26.039999999976914,108.88000000014779,26.23,107.51,21.19,82,88,1.67
najran,sa,18.899999999978334,47.66000000011647,17.54,44.22,29,32,75,0.52
willmar,us,45.51999999997304,-94.81999999995642,45.12,-95.04,4.73,93,1,1.97
nanortalik,gl,56.21999999997092,-37.07999999992688,60.14,-45.24,1.49,87,80,10.27
rocky mountain house,ca,51.87999999997177,-114.9199999999667,52.38,-114.92,0.54,74,88,1.32
antofagasta,cl,-22.780000000013374,-73.63999999994559,-23.65,-70.4,15,87,20,0.5
russell,nz,-32.920000000011356,176.5200000001824,-35.26,174.12,16.99,65,76,1.42
belmonte,br,-19.220000000014082,-25.819999999921123,-26.84,-53.58,18.84,91,8,2.12
alexandria,eg,29.87999999997615,29.080000000106963,31.2,29.89,19.39,82,0,2.52
la ronge,ca,64.81999999996918,-103.85999999996105,55.1,-105.3,1,90,90,4.6
denpasar,id,-11.580000000015602,114.24000000015053,-8.65,115.22,30.59,59,0,1.67
vestmanna,fo,68.39999999996849,-9.399999999912723,62.16,-7.17,7,93,92,8.7
vardo,no,85.4399999999651,34.500000000109736,70.37,31.11,0,100,75,5.1
seabra,br,-12.120000000015494,-42.11999999992946,-12.42,-41.77,17.89,91,88,4.67
rio grande,br,-32.56000000001143,-52.07999999993456,-32.03,-52.1,22.39,93,36,4.12
mar del plata,ar,-60.44000000000588,-32.63999999992461,-46.43,-67.52,8.79,71,24,7.52
pundaguitan,ph,5.959999999980909,127.4800000001573,6.37,126.17,28.29,100,24,2.07
ribeira grande,pt,47.039999999972736,-38.839999999927784,38.52,-28.7,16.34,100,24,2.87
lucapa,ao,-8.500000000016215,20.22000000010243,-8.42,20.74,19.89,84,0,1.12
rong kwang,th,18.339999999978446,100.44000000014347,18.34,100.32,36,50,20,2.6
jieshi,cn,21.97999999997772,115.54000000015117,22.82,115.83,26.74,80,0,3.72
marathon,us,24.519999999977216,-81.01999999994936,42.44,-76.03,3.97,30,1,1.5
voloshka,ru,61.07999999996994,39.520000000112304,61.33,40.09,-2.51,86,0,6.27
dwarka,in,19.759999999978163,65.82000000012576,28.58,77.04,33,15,0,2.6
palauig,ph,14.379999999979233,116.60000000015174,15.44,119.9,28.89,84,24,2.02
itabira,br,-19.600000000014006,-43.41999999993013,-19.62,-43.23,17.29,99,92,1.72
talara,pe,-4.760000000016959,-85.85999999995184,-4.58,-81.27,20.49,81,24,1.77
tasiilaq,gl,63.459999999969455,-38.199999999927456,65.61,-37.64,-2,58,56,5.1
zhigansk,ru,69.13999999996832,123.82000000015546,66.77,123.37,4.24,93,92,7.87
amboasary,mg,-24.180000000013095,45.84000000011554,-25.04,46.38,24,88,40,2.77
xinzhi,cn,36.839999999974765,110.6200000001487,36.5,111.7,17.54,67,36,1.32
linxia,cn,33.49999999997543,100.86000000014371,35.6,103.21,5.54,100,92,1.82
padang,id,-3.360000000017237,96.82000000014159,-0.92,100.36,27.64,100,80,1.27
vuktyl,ru,63.01999999996957,59.10000000012232,63.86,57.31,-2.61,72,92,3.77
fort nelson,ca,60.359999999970086,-124.89999999997181,58.81,-122.69,2,51,20,2.6
kayes,ml,14.49999999997921,-11.099999999913592,14.44,-11.44,25.39,31,0,4.37
west wendover,us,41.63999999997381,-114.05999999996627,40.74,-114.07,19,32,40,2.1
bodden town,ky,19.359999999978243,-80.77999999994924,19.28,-81.25,27,83,20,2.6
ucluelet,ca,46.37999999997288,-127.49999999997314,48.94,-125.55,3.74,91,0,0.82
san isidro,ph,5.8599999999809285,129.78000000015845,17.47,120.6,27.29,88,24,1.52
mgandu,tz,-6.640000000016585,33.70000000010933,-5.96,34.11,18.04,100,76,2.62
bang saphan,th,10.919999999979922,99.90000000014322,11.21,99.51,32,66,40,4.1
eidfjord,no,60.57999999997003,7.420000000095882,60.47,7.07,0.24,100,92,1.12
patitirion,gr,39.27999999997428,23.920000000104324,39.15,23.87,14.08,82,0,0.97
comodoro rivadavia,ar,-48.360000000008284,-66.89999999994214,-45.87,-67.48,10,53,0,5.1
santa isabel do rio negro,br,0.7599999999819431,-64.15999999994074,-0.41,-65.02,23.34,98,76,0.92
tianpeng,cn,31.059999999975915,103.66000000014515,28.88,112.34,16.49,98,92,6.22
decatur,us,39.89999999997417,-88.77999999995333,35.51,-84.79,13,93,90,4.77
ancud,cl,-41.2400000000097,-81.13999999994942,-41.87,-73.83,7.84,85,76,1.12
pizhanka,ru,57.11999999997073,48.62000000011696,57.46,48.54,-1.71,91,80,8.82
smithers,ca,58.65999999997041,-128.0199999999734,54.78,-127.17,4,69,75,1
constitucion,mx,13.13999999997948,-124.53999999997163,23.99,-104.67,17.64,34,12,3.77
huarmey,pe,-12.640000000015391,-85.25999999995153,-10.07,-78.15,18.19,72,36,0.72
san rafael,ar,-36.52000000001064,-67.0199999999422,-34.61,-68.33,7.79,75,0,0.87
cabedelo,br,-5.680000000016776,-25.219999999920816,-6.97,-34.84,25.69,100,80,5.02
julio de castilhos,br,-29.040000000012128,-53.47999999993527,-29.23,-53.68,19.14,93,24,1.62
grindavik,is,56.73999999997079,-26.619999999921532,63.84,-22.43,1.41,86,20,6.2
yurino,ru,56.67999999997082,46.32000000011578,56.29,46.29,-3,86,75,7
tombouctou,ml,16.739999999978764,-2.199999999909039,16.77,-3.01,22.54,35,12,0.02
ambam,cm,2.499999999981597,11.280000000097857,2.38,11.27,23.19,95,92,1.32
mhlume,sz,-25.92000000001275,32.04000000010848,-26.03,31.81,20.19,88,0,1.72
severo-kurilsk,ru,34.279999999975274,163.4400000001757,50.68,156.12,-0.36,100,36,6.22
trelew,ar,-44.80000000000899,-65.79999999994158,-43.25,-65.31,2.89,48,0,3.07
awjilah,ly,27.739999999976575,20.700000000102676,29.14,21.3,18.39,43,0,4.47
ilulissat,gl,73.7799999999674,-44.25999999993056,69.22,-51.1,-5,85,24,1.5
matara,lk,-0.9400000000177187,81.82000000013397,5.95,80.54,30.74,91,0,2.42
onega,ru,63.65999999996944,38.5400000001118,63.91,38.09,-3.61,91,0,1.77
honningsvag,no,70.75999999996802,26.640000000105715,70.98,25.97,1,86,75,0.5
alice springs,au,-27.500000000012434,134.26000000016074,-23.7,133.88,31,15,0,5.7
pangai,to,-21.520000000013624,-172.3999999999961,-19.8,-174.35,26,88,40,9.67
san fernando,mx,24.85999999997715,-98.4999999999583,24.85,-98.15,20.29,79,64,1.67
kytmanovo,ru,53.2399999999715,85.10000000013565,53.46,85.45,18.39,79,92,7.52
buluang,ph,12.659999999979576,118.70000000015284,10.47,123.98,33,59,20,4.6
coaticook,ca,44.91999999997316,-71.65999999994457,45.13,-71.8,-0.47,74,1,2.1
wanlaweyn,so,2.9199999999815134,44.4000000001148,2.62,44.89,25.64,100,64,1.92
orcopampa,pe,-15.240000000014874,-72.6999999999451,-15.27,-72.34,0.29,99,88,0.52
puerto quijarro,bo,-18.000000000014325,-56.999999999937074,-19,-57.72,22.39,74,0,1.52
aitape,pg,0.1599999999820625,143.56000000016553,-3.15,142.36,27.29,100,76,0.17
caravelas,br,-17.940000000014336,-37.53999999992712,-17.73,-39.27,26.19,98,88,4.47
sorland,no,71.11999999996794,9.78000000009709,67.67,12.69,5,86,40,10.3
kutum,sd,14.139999999979281,24.48000000010461,14.2,24.66,25.69,14,8,5.67
haines junction,ca,60.79999999997,-139.1399999999791,60.75,-137.51,-1.31,83,76,1.92
bethel,us,54.13999999997134,-162.13999999999086,60.79,-161.76,8,52,90,5.1
bulaevo,kz,54.639999999971224,69.92000000012786,54.91,70.44,7.99,94,92,3.22
chokurdakh,ru,70.19999999996813,150.90000000016926,70.62,147.9,-1.51,96,0,5.22
katsuura,jp,23.379999999977443,150.20000000016893,33.93,134.5,21,60,75,4.1
tuatapere,nz,-53.540000000007254,156.30000000017208,-46.13,167.69,13.69,89,48,9.12
provideniya,ru,61.89999999996979,-170.69999999999524,64.42,-173.23,-2,63,40,10
asti,it,44.85999999997318,8.200000000096281,44.9,8.21,12.78,67,0,0.5
bathsheba,bb,18.41999999997843,-45.41999999993115,13.22,-59.52,25,83,75,8.7
santa maria,cv,17.41999999997863,-20.819999999918565,16.6,-22.9,20,72,40,6.2
taormina,it,37.639999999974606,15.520000000100026,37.85,15.29,13.77,87,0,2.6
swan river,ca,52.57999999997162,-100.71999999995944,52.11,-101.27,5.69,71,32,5.42
verkh-suetka,ru,53.63999999997142,79.98000000013303,53.3,80.05,16.94,76,64,9.77
fremont,us,41.559999999973826,-96.55999999995731,37.55,-121.99,16.45,59,1,2.6
wawa,ca,47.65999999997263,-85.23999999995152,47.99,-84.77,1.69,62,12,3.47
ibra,om,18.339999999978446,58.42000000012197,22.69,58.55,29.14,37,0,1.52
myitkyina,mm,25.15999999997709,98.80000000014263,25.38,97.4,31.54,51,0,0.42
kiama,au,-37.500000000010445,157.12000000017247,-34.67,150.86,23,56,20,4.6
rexburg,us,44.61999999997323,-111.29999999996485,43.82,-111.79,9.66,87,90,7.2
cukai,my,4.139999999981271,105.340000000146,4.25,103.42,32,62,75,3.1
fort saint james,ca,55.13999999997111,-124.0999999999714,54.43,-124.25,0.19,77,36,1.12
saint george,bm,28.039999999976516,-53.83999999993546,32.38,-64.68,18,68,90,5.7
okhotsk,ru,58.759999999970404,141.98000000016475,59.36,143.24,4.39,65,64,1.07
spencer,us,42.919999999973555,-95.31999999995668,43.14,-95.14,4.72,86,75,2.6
kemin,kg,42.55999999997363,76.46000000013123,42.79,75.7,10.04,75,12,0.82
vila franca do campo,pt,31.999999999975728,-25.879999999921154,37.72,-25.43,14,87,20,3.6
tura,ru,67.4199999999687,103.62000000014507,64.27,100.22,-7.21,53,68,4.97
melfi,td,11.139999999979878,18.600000000101602,11.06,17.94,27.19,60,0,1.72
tulsipur,in,27.779999999976567,82.42000000013422,27.53,82.41,35.79,17,0,4.32
muros,es,42.85999999997358,-13.079999999914605,42.77,-9.06,10,100,90,2.6
port hawkesbury,ca,41.6199999999738,-60.63999999993894,45.62,-61.36,-5,79,1,3.67
sioux lookout,ca,51.739999999971815,-92.4199999999552,50.1,-91.92,9,81,75,2.6
marawi,sd,17.5599999999786,28.960000000106902,18.48,31.82,27.84,19,0,5.02
kashan,ir,33.99999999997533,51.640000000118505,33.99,51.44,19,45,75,9.8
lorengau,pg,8.759999999980352,147.56000000016758,-2.02,147.27,29.24,100,24,2.52
saldanha,za,-35.040000000010934,7.340000000095841,-33.01,17.94,15,87,92,3.6
ukiah,us,36.99999999997473,-126.99999999997289,39.15,-123.21,16,51,1,0.97
hovd,mn,45.73999999997301,102.60000000014458,48.01,91.64,17.54,15,0,2.42
villarrica,co,3.7999999999813383,-74.69999999994613,3.93,-74.6,12.34,85,64,0.42
kupang,id,-12.24000000001547,121.8600000001544,-10.16,123.6,30.84,78,0,8.02
narsaq,gl,76.05999999996698,-67.25999999994232,60.91,-46.05,7,28,56,7.7
pandan,ph,15.859999999978939,125.00000000015604,11.72,122.09,28.59,98,0,6.17
yantal,ru,59.61999999997022,105.24000000014593,56.85,105.25,14.14,53,68,4.77
dawson creek,ca,54.819999999971174,-120.39999999996951,55.76,-120.23,3.16,64,1,1
namibe,ao,-16.16000000001469,10.200000000097305,-15.19,12.15,25.89,100,0,3.32
valdivia,cl,-39.90000000000997,-74.0599999999458,-39.81,-73.25,3,100,0,1
rach gia,vn,9.839999999980137,104.4000000001455,10.02,105.08,32.39,84,32,2.57
kysyl-syr,ru,63.55999999996945,123.68000000015536,63.9,122.77,8.84,70,32,5.72
port augusta,au,-29.700000000011997,136.80000000016207,-32.49,137.76,33,13,8,10.3
mao,td,15.439999999979023,15.500000000100016,14.12,15.31,24.89,17,0,3.22
seymchan,ru,63.03999999996955,151.7800000001697,62.93,152.39,1.64,86,36,2.72
roald,no,75.21999999996711,-0.2799999999080569,62.58,6.12,8.72,100,75,2.1
gambela,et,8.299999999980443,34.08000000010952,8.25,34.59,24.49,80,8,1.27
sao raimundo das mangabeiras,br,-6.5000000000166125,-45.079999999930976,-7.02,-45.48,25.04,75,48,2.52
nago,jp,26.579999999976806,128.36000000015775,26.59,127.98,25.26,83,75,5.7
vengerovo,ru,55.87999999997098,77.60000000013179,55.68,76.74,1.04,100,92,6.87
ahtopol,bg,42.319999999973675,28.140000000106483,42.1,27.94,16,63,0,6.2
mahanoro,mg,-20.420000000013843,51.640000000118505,-19.9,48.8,22.04,100,100,0.77
pozo colorado,py,-23.980000000013135,-58.93999999993807,-23.49,-58.8,24.19,70,0,2.67
bouna,ci,9.539999999980196,-4.0399999999099805,9.27,-3,24.34,85,48,3.72
tabatinga,br,-21.80000000001357,-48.519999999932736,-21.74,-48.69,17.79,78,0,2.97
kikinda,rs,45.69999999997299,20.440000000102543,45.83,20.46,14.03,87,0,2.1
yarada,in,13.33999999997944,86.22000000013622,17.65,83.27,30.29,93,88,7.52
valparaiso,cl,-32.04000000001153,-74.39999999994598,-33.04,-71.63,13,87,0,1.32
lagoa,pt,51.41999999997188,-32.67999999992463,37.14,-8.45,16,72,0,3.6
bongaree,au,-26.960000000012542,153.2800000001705,-27.08,153.16,23,60,20,3.6
utinga,br,-11.280000000015661,-42.93999999992988,-5.82,-35.4,24,88,20,1.5
talnakh,ru,70.17999999996812,88.20000000013721,69.49,88.39,-12.26,87,76,6.37
amungan,ph,15.279999999979054,119.82000000015341,15.37,119.96,28.89,84,24,2.02
merauke,id,-9.200000000016075,139.22000000016328,-8.49,140.4,30.74,70,68,6.97
bryant,us,34.319999999975266,-92.39999999995518,34.6,-92.49,12.51,93,75,3.6
anadyr,ru,65.53999999996904,177.02000000018268,64.73,177.51,-4,73,0,10
kaduqli,sd,11.919999999979723,30.160000000107516,11.01,29.72,29.94,45,0,2.22
vestmannaeyjar,is,51.719999999971805,-22.679999999919517,63.44,-20.27,2.29,100,0,4.57
kailua,us,35.55999999997502,-151.6399999999855,21.39,-157.74,24,78,75,4.6
comarapa,bo,-17.82000000001436,-64.89999999994112,-17.91,-64.53,8.19,93,56,1.07
sambava,mg,-11.460000000015626,53.18000000011929,-14.27,50.17,24.69,100,68,6.87
karratha,au,-17.840000000014356,113.7400000001503,-20.74,116.85,38.49,15,0,2.17
auki,sb,-3.180000000017273,163.46000000017568,-8.77,160.7,27.09,100,80,2.52
oistins,bb,12.079999999979691,-58.27999999993773,13.07,-59.53,25,83,75,8.7
palmerston,au,-13.380000000015244,130.58000000015886,-12.49,130.99,34,32,0,3.1
bodo,no,67.19999999996872,14.440000000099474,67.28,14.4,7,65,75,8.7
canoinhas,br,-26.440000000012645,-50.239999999933616,-26.18,-50.4,12.39,95,12,1.17
moussoro,td,14.79999999997915,16.60000000010058,13.64,16.49,24.49,26,0,1.97
neiafu,to,-19.400000000014046,-172.23999999999603,-18.65,-173.98,27,83,40,7.92
las vegas,us,34.49999999997523,-105.25999999996176,36.17,-115.15,24.99,22,1,2.17
northam,au,-32.40000000001146,117.76000000015233,-31.65,116.67,23,49,40,6.7
solnechnyy,ru,61.41999999996989,138.76000000016307,50.72,136.64,12.99,41,92,3.32
ust-omchug,ru,61.37999999996987,148.72000000016817,61.13,149.63,-0.66,71,76,1.57
skjervoy,no,72.15999999996774,20.18000000010241,70.03,20.97,1,74,75,6.2
bezhanitsy,ru,56.7599999999708,29.920000000107393,56.97,29.88,3.14,57,0,2.07
dharchula,in,32.17999999997569,82.0600000001341,29.85,80.53,10.14,67,0,0.62
banda aceh,id,4.159999999981267,94.3800000001404,5.56,95.32,30.04,85,32,1.12
ouesso,cg,2.3399999999816288,16.180000000100364,1.61,16.05,24.89,95,44,1.22
takoradi,gh,2.1799999999816606,-1.4399999999086504,4.89,-1.75,25.89,100,0,2.22
svetlogorsk,ru,66.41999999996887,88.42000000013729,53.14,59.15,7,87,90,6
tateyama,jp,20.77999999997796,144.94000000016626,36.66,137.31,18,72,75,3.1
minab,ir,25.679999999976985,58.02000000012177,27.15,57.07,31,31,0,2.1
acajutla,sv,7.719999999980558,-92.07999999995502,13.59,-89.83,24.39,89,44,1.52
rensvik,no,63.37999999996947,8.160000000096261,63.1,7.82,8.45,70,75,1
san angelo,us,30.97999999997593,-101.07999999995963,31.46,-100.44,15,44,1,1.5
ewo,cg,-1.0200000000177027,15.460000000099996,-0.88,14.81,22.39,92,48,2.07
hambantota,lk,0.7999999999819352,87.12000000013666,6.12,81.12,30.39,95,0,0.82
bardiyah,ly,28.71999999997638,25.46000000010511,31.76,25.09,16.39,96,0,2.42
simbahan,ph,6.579999999980785,119.6400000001533,6.3,120.58,29.19,100,20,2.07
deputatskiy,ru,74.8799999999672,142.04000000016475,69.3,139.9,-0.11,83,80,5.22
shihezi,cn,43.59999999997342,86.18000000013615,44.3,86.03,26.79,15,0,3.42
sovetskiy,ru,73.49999999996749,67.70000000012672,56.76,48.47,-2.01,93,88,7.92
clovis,us,37.639999999974606,-119.31999999996896,36.83,-119.7,22.37,53,1,2.6
baay,ph,18.11999999997849,120.60000000015378,16.01,120.22,30.39,93,8,2.27
tuli,ph,7.339999999980634,125.40000000015624,7.23,125.42,33,59,40,3.6
clarence town,bs,23.779999999977363,-75.49999999994654,23.1,-74.98,24.44,100,56,6.92
hokitika,nz,-42.44000000000946,169.06000000017855,-42.72,170.96,12.14,100,92,1.77
coos bay,us,42.1999999999737,-128.81999999997382,43.37,-124.22,7.91,87,1,2.6
rosaryville,us,38.579999999974405,-76.53999999994707,38.76,-76.81,11.81,57,90,4.1
fare,pf,-10.960000000015725,-147.87999999998357,-16.7,-151.02,27.49,100,8,3.02
afua,br,-0.44000000001781814,-50.43999999993372,-0.16,-50.39,24.79,100,100,2.32
hervey bay,au,-23.520000000013226,154.4400000001711,-25.3,152.85,23.54,97,24,5.32
wanxian,cn,31.519999999975823,109.02000000014789,30.8,108.39,20.04,95,92,1.37
guane,cu,22.359999999977646,-84.03999999995091,22.2,-84.09,21.84,92,20,1.52
bundaberg,au,-20.08000000001391,156.24000000017202,-24.87,152.35,24.34,99,8,6.67
port lincoln,au,-37.7400000000104,133.82000000016058,-34.72,135.86,24.64,57,92,4.47
esperance,au,-34.980000000010946,125.1200000001561,-33.86,121.89,22.69,45,0,6.47
kerema,pg,-7.940000000016326,145.74000000016667,-7.96,145.78,23.79,97,92,1.32
texarkana,us,34.03999999997532,-94.25999999995614,33.44,-94.04,12,87,90,3.6
vao,nc,-27.940000000012347,168.8600000001785,-22.67,167.48,25.34,97,76,8.27
cairns,au,-15.440000000014834,145.82000000016671,-16.92,145.77,27,65,40,6.7
mbini,gq,1.8999999999817163,8.240000000096302,1.58,9.62,26.14,100,76,1.47
baie-comeau,ca,50.01999999997213,-68.09999999994275,49.22,-68.15,2.42,32,20,2.6
gayny,ru,61.299999999969884,54.88000000012016,60.3,54.33,4.19,93,88,2.07
palmer,us,62.3799999999697,-147.25999999998325,61.6,-149.11,7.01,75,75,2.6
berlevag,no,88.3999999999645,32.02000000010847,70.86,29.09,0.66,86,75,4.1
taiyuan,cn,37.45999999997464,112.36000000014957,37.86,112.56,19,52,0,2
komsomolskiy,ru,68.49999999996845,172.6000000001804,67.55,63.78,-7.96,96,68,3.97
castle rock,us,39.399999999974256,-104.89999999996158,46.27,-122.91,10.17,75,0,1.62
sandwick,gb,58.579999999970426,0.7800000000924854,54.57,-2.89,6,100,92,11.8
teahupoo,pf,-19.520000000014022,-148.63999999998396,-17.83,-149.27,26,74,40,3.1
richards bay,za,-34.340000000011074,37.50000000011127,-28.77,32.06,19.54,84,0,1.47
tsabong,bw,-25.940000000012745,21.580000000103126,-26.02,22.4,13.94,39,0,2.42
ambatofinandrahana,mg,-20.18000000001389,46.10000000011567,-20.55,46.8,19.69,84,0,1.67
tiarei,pf,-12.200000000015478,-146.27999999998275,-17.53,-149.33,26,74,40,3.1
takab,ir,36.179999999974896,47.340000000116305,36.4,47.11,5.59,86,32,1.27
pedernales,do,15.419999999979026,-71.23999999994436,18.04,-71.74,24.49,100,12,3.62
chapais,ca,52.899999999971556,-74.41999999994599,49.78,-74.86,-5,73,1,2.12
tsumeb,na,-18.000000000014325,17.800000000101193,-19.25,17.72,15.54,45,0,3.62
hobyo,so,2.359999999981625,53.68000000011955,5.35,48.53,27.04,100,24,2.77
nerchinskiy zavod,ru,51.699999999971794,119.94000000015342,51.31,119.61,16.24,26,0,4.12
baglung,np,28.559999999976412,83.4800000001348,28.27,83.59,24.14,29,0,0.72
lufilufi,ws,-6.000000000016712,-167.25999999999348,-13.87,-171.6,27,83,75,3.1
hare bay,ca,50.21999999997212,-53.43999999993525,48.86,-53.99,-2,74,20,3.1
shenjiamen,cn,30.73999999997598,122.92000000015497,29.96,122.3,20.04,90,88,6.77
havre-saint-pierre,ca,55.079999999971136,-62.979999999940134,50.23,-63.6,0,79,40,3.6
kiunga,pg,-5.700000000016772,140.46000000016397,-6.12,141.3,25.49,91,92,1.22
kenai,us,60.17999999997011,-151.41999999998538,60.55,-151.26,7.51,58,90,5.7
ravar,ir,31.799999999975768,57.00000000012125,31.27,56.81,24.64,23,92,4.12
batemans bay,au,-39.80000000000999,154.220000000171,-35.71,150.18,19.59,84,12,1.57
boende,cd,-2.14000000001748,21.620000000103147,-0.28,20.88,24.99,90,76,1.37
ust-kulom,ru,62.299999999969714,53.54000000011948,61.69,53.69,-1.91,78,92,5.82
vysokogornyy,ru,51.119999999971924,139.3400000001634,50.1,139.13,4.79,55,88,3.62
belmopan,bz,16.839999999978744,-88.69999999995329,17.25,-88.77,26.14,75,88,1.67
ormara,pk,25.55999999997701,64.60000000012514,25.21,64.64,30.49,58,0,1.57
kinna,se,57.35999999997068,12.580000000098522,57.51,12.69,6,75,0,6.7
nishihara,jp,20.439999999978028,132.64000000015994,35.74,139.53,17.19,63,75,3.6
cayenne,gf,14.239999999979261,-40.639999999928705,4.94,-52.33,24,100,75,2.52
kirriemuir,gb,56.77999999997081,-3.13999999990952,56.67,-3.01,10,76,20,9.8
fredericksburg,us,38.35999999997446,-77.33999999994748,38.3,-77.46,10.59,62,90,1.5
wuning,cn,29.17999999997629,120.32000000015364,29.26,120.23,21.34,100,92,1.67
pacific grove,us,33.19999999997549,-126.99999999997289,36.62,-121.92,12.48,76,1,1.12
porto walter,br,-9.460000000016024,-73.53999999994554,-8.27,-72.74,23.29,96,80,0.92
carutapera,br,9.11999999998028,-41.17999999992898,-1.2,-46.02,24.69,99,64,1.62
ruidoso,us,34.1399999999753,-105.29999999996178,33.33,-105.67,16.19,30,1,3.1
havoysund,no,79.99999999996618,24.60000000010467,71,24.66,0.13,74,0,1.5
coihaique,cl,-47.82000000000839,-77.39999999994751,-45.58,-72.07,4.88,75,0,1.5
shimoda,jp,20.859999999977944,143.3200000001654,34.7,138.93,19.91,82,75,5.7
blagoyevo,ru,64.47999999996927,47.94000000011661,63.37,47.92,-1.31,61,0,3.87
marsabit,ke,1.499999999981796,38.18000000011162,2.34,37.99,23.29,100,68,1.77
sao jose de ribamar,br,-1.7800000000175515,-43.7599999999303,-2.56,-44.05,25,94,75,2.6
tahta,eg,23.659999999977387,27.480000000106145,26.77,31.5,18.94,37,0,2.12
barvinkove,ua,49.159999999972314,36.960000000110995,48.91,37.03,10.19,52,36,3.52
kollam,in,8.539999999980395,75.4800000001307,8.88,76.6,33,63,20,4.6
port-gentil,ga,-0.44000000001781814,8.340000000096353,-0.72,8.78,27,88,40,2.27
voyvozh,ru,63.11999999996954,55.46000000012046,62.89,54.96,-3.56,91,88,7.22
tessalit,ml,22.479999999977622,2.0800000000931504,20.2,1.01,18.64,30,0,2.87
bulungu,cd,-4.5800000000169945,18.680000000101643,-4.54,18.6,22.04,95,88,1.97
westport,nz,-38.960000000010155,166.26000000017711,-41.75,171.6,10.89,100,32,1.07
esmeraldas,ec,1.2799999999818397,-79.73999999994871,-1.87,-79.8,25,78,75,2.6
borzya,ru,50.39999999997207,116.62000000015178,50.39,116.53,15.49,33,0,7.47
